{
"type": "FeatureCollection",
                                                                                
"features": [
{ "type": "Feature", "properties": { "AREA": 0.000000, "PERIMETER": 0.000000, "CITIESX020": 2281.000000, "FEATURE": "Population 10,000 to 49,999", "NAME": "Boulder City", "FIPS": "32003", "FIPS55": "06500", "POP": 12567.000000, "STATE_FIPS": "32", "STATE": "NV", "COUNTY": "Clark County" }, "geometry": { "type": "Point", "coordinates": [ -114.840736389160156, 35.975784301757812 ] } },
{ "type": "Feature", "properties": { "AREA": 0.000000, "PERIMETER": 0.000000, "CITIESX020": 2286.000000, "FEATURE": "Population 10,000 to 49,999  State Capital  County Seat", "NAME": "Carson City", "FIPS": "32510", "FIPS55": "09700", "POP": 40443.000000, "STATE_FIPS": "32", "STATE": "NV", "COUNTY": "Carson City" }, "geometry": { "type": "Point", "coordinates": [ -119.768798828125, 39.163528442382812 ] } },
{ "type": "Feature", "properties": { "AREA": 0.000000, "PERIMETER": 0.000000, "CITIESX020": 2302.000000, "FEATURE": "Population 10,000 to 49,999", "NAME": "East Las Vegas", "FIPS": "32003", "FIPS55": "21500", "POP": 11087.000000, "STATE_FIPS": "32", "STATE": "NV", "COUNTY": "Clark County" }, "geometry": { "type": "Point", "coordinates": [ -115.043342590332031, 36.094474792480469 ] } },
{ "type": "Feature", "properties": { "AREA": 0.000000, "PERIMETER": 0.000000, "CITIESX020": 2305.000000, "FEATURE": "Population 10,000 to 49,999  County Seat", "NAME": "Elko", "FIPS": "32007", "FIPS55": "22500", "POP": 14736.000000, "STATE_FIPS": "32", "STATE": "NV", "COUNTY": "Elko County" }, "geometry": { "type": "Point", "coordinates": [ -115.764396667480469, 40.832263946533203 ] } },
{ "type": "Feature", "properties": { "AREA": 0.000000, "PERIMETER": 0.000000, "CITIESX020": 2309.000000, "FEATURE": "Population less than 10,000  County Seat", "NAME": "Fallon", "FIPS": "32001", "FIPS55": "24100", "POP": 6438.000000, "STATE_FIPS": "32", "STATE": "NV", "COUNTY": "Churchill County" }, "geometry": { "type": "Point", "coordinates": [ -118.77886962890625, 39.47320556640625 ] } },
{ "type": "Feature", "properties": { "AREA": 0.000000, "PERIMETER": 0.000000, "CITIESX020": 2326.000000, "FEATURE": "Population 50,000 to 99,999", "NAME": "Henderson", "FIPS": "32003", "FIPS55": "31900", "POP": 64942.000000, "STATE_FIPS": "32", "STATE": "NV", "COUNTY": "Clark County" }, "geometry": { "type": "Point", "coordinates": [ -114.974105834960938, 36.035404205322266 ] } },
{ "type": "Feature", "properties": { "AREA": 0.000000, "PERIMETER": 0.000000, "CITIESX020": 2340.000000, "FEATURE": "Population 250,000 to 499,999  County Seat", "NAME": "Las Vegas", "FIPS": "32003", "FIPS55": "40000", "POP": 258295.000000, "STATE_FIPS": "32", "STATE": "NV", "COUNTY": "Clark County" }, "geometry": { "type": "Point", "coordinates": [ -115.138214111328125, 36.174880981445312 ] } },
{ "type": "Feature", "properties": { "AREA": 0.000000, "PERIMETER": 0.000000, "CITIESX020": 2362.000000, "FEATURE": "Population 10,000 to 49,999", "NAME": "North Las Vegas", "FIPS": "32003", "FIPS55": "51800", "POP": 47707.000000, "STATE_FIPS": "32", "STATE": "NV", "COUNTY": "Clark County" }, "geometry": { "type": "Point", "coordinates": [ -115.119209289550781, 36.199001312255859 ] } },
{ "type": "Feature", "properties": { "AREA": 0.000000, "PERIMETER": 0.000000, "CITIESX020": 2383.000000, "FEATURE": "Population 100,000 to 249,999  County Seat", "NAME": "Reno", "FIPS": "32031", "FIPS55": "60600", "POP": 133850.000000, "STATE_FIPS": "32", "STATE": "NV", "COUNTY": "Washoe County" }, "geometry": { "type": "Point", "coordinates": [ -119.816093444824219, 39.529483795166016 ] } },
{ "type": "Feature", "properties": { "AREA": 0.000000, "PERIMETER": 0.000000, "CITIESX020": 2399.000000, "FEATURE": "Population 50,000 to 99,999", "NAME": "Sparks", "FIPS": "32031", "FIPS55": "68400", "POP": 53367.000000, "STATE_FIPS": "32", "STATE": "NV", "COUNTY": "Washoe County" }, "geometry": { "type": "Point", "coordinates": [ -119.754814147949219, 39.534687042236328 ] } },
{ "type": "Feature", "properties": { "AREA": 0.000000, "PERIMETER": 0.000000, "CITIESX020": 2429.000000, "FEATURE": "Population less than 10,000  County Seat", "NAME": "Winnemucca", "FIPS": "32013", "FIPS55": "84800", "POP": 6134.000000, "STATE_FIPS": "32", "STATE": "NV", "COUNTY": "Humboldt County" }, "geometry": { "type": "Point", "coordinates": [ -117.737785339355469, 40.972713470458984 ] } },
{ "type": "Feature", "properties": { "AREA": 0.000000, "PERIMETER": 0.000000, "CITIESX020": 15673.000000, "FEATURE": "Population 10,000 to 49,999", "NAME": "Apache Junction", "FIPS": "04021", "FIPS55": "02830", "POP": 18100.000000, "STATE_FIPS": "04", "STATE": "AZ", "COUNTY": "Pinal County" }, "geometry": { "type": "Point", "coordinates": [ -111.551155090332031, 33.415115356445312 ] } },
{ "type": "Feature", "properties": { "AREA": 0.000000, "PERIMETER": 0.000000, "CITIESX020": 15679.000000, "FEATURE": "Population 10,000 to 49,999", "NAME": "Avondale", "FIPS": "04013", "FIPS55": "04720", "POP": 16169.000000, "STATE_FIPS": "04", "STATE": "AZ", "COUNTY": "Maricopa County" }, "geometry": { "type": "Point", "coordinates": [ -112.351394653320312, 33.435920715332031 ] } },
{ "type": "Feature", "properties": { "AREA": 0.000000, "PERIMETER": 0.000000, "CITIESX020": 15685.000000, "FEATURE": "Population less than 10,000  County Seat", "NAME": "Bisbee", "FIPS": "04003", "FIPS55": "06260", "POP": 6288.000000, "STATE_FIPS": "04", "STATE": "AZ", "COUNTY": "Cochise County" }, "geometry": { "type": "Point", "coordinates": [ -109.929847717285156, 31.448215484619141 ] } },
{ "type": "Feature", "properties": { "AREA": 0.000000, "PERIMETER": 0.000000, "CITIESX020": 15694.000000, "FEATURE": "Population 10,000 to 49,999", "NAME": "Bullhead City", "FIPS": "04015", "FIPS55": "08220", "POP": 21951.000000, "STATE_FIPS": "04", "STATE": "AZ", "COUNTY": "Mohave County" }, "geometry": { "type": "Point", "coordinates": [ -114.569564819335938, 35.147815704345703 ] } },
{ "type": "Feature", "properties": { "AREA": 0.000000, "PERIMETER": 0.000000, "CITIESX020": 15701.000000, "FEATURE": "Population less than 10,000", "NAME": "Camp Verde", "FIPS": "04025", "FIPS55": "09690", "POP": 6243.000000, "STATE_FIPS": "04", "STATE": "AZ", "COUNTY": "Yavapai County" }, "geometry": { "type": "Point", "coordinates": [ -111.855918884277344, 34.563640594482422 ] } },
{ "type": "Feature", "properties": { "AREA": 0.000000, "PERIMETER": 0.000000, "CITIESX020": 15704.000000, "FEATURE": "Population 10,000 to 49,999", "NAME": "Casa Grande", "FIPS": "04021", "FIPS55": "10530", "POP": 19082.000000, "STATE_FIPS": "04", "STATE": "AZ", "COUNTY": "Pinal County" }, "geometry": { "type": "Point", "coordinates": [ -111.759017944335938, 32.879653930664062 ] } },
{ "type": "Feature", "properties": { "AREA": 0.000000, "PERIMETER": 0.000000, "CITIESX020": 15708.000000, "FEATURE": "Population 50,000 to 99,999", "NAME": "Chandler", "FIPS": "04013", "FIPS55": "12000", "POP": 90533.000000, "STATE_FIPS": "04", "STATE": "AZ", "COUNTY": "Maricopa County" }, "geometry": { "type": "Point", "coordinates": [ -111.84283447265625, 33.306243896484375 ] } },
{ "type": "Feature", "properties": { "AREA": 0.000000, "PERIMETER": 0.000000, "CITIESX020": 15731.000000, "FEATURE": "Population less than 10,000", "NAME": "Coolidge", "FIPS": "04021", "FIPS55": "15500", "POP": 6927.000000, "STATE_FIPS": "04", "STATE": "AZ", "COUNTY": "Pinal County" }, "geometry": { "type": "Point", "coordinates": [ -111.519172668457031, 32.978145599365234 ] } },
{ "type": "Feature", "properties": { "AREA": 0.000000, "PERIMETER": 0.000000, "CITIESX020": 15743.000000, "FEATURE": "Population 10,000 to 49,999", "NAME": "Douglas", "FIPS": "04003", "FIPS55": "20050", "POP": 12822.000000, "STATE_FIPS": "04", "STATE": "AZ", "COUNTY": "Cochise County" }, "geometry": { "type": "Point", "coordinates": [ -109.547134399414062, 31.344581604003906 ] } },
{ "type": "Feature", "properties": { "AREA": 0.000000, "PERIMETER": 0.000000, "CITIESX020": 15749.000000, "FEATURE": "Population less than 10,000", "NAME": "Eloy", "FIPS": "04021", "FIPS55": "22360", "POP": 7211.000000, "STATE_FIPS": "04", "STATE": "AZ", "COUNTY": "Pinal County" }, "geometry": { "type": "Point", "coordinates": [ -111.55596923828125, 32.756107330322266 ] } },
{ "type": "Feature", "properties": { "AREA": 0.000000, "PERIMETER": 0.000000, "CITIESX020": 15751.000000, "FEATURE": "Population 10,000 to 49,999  County Seat", "NAME": "Flagstaff", "FIPS": "04005", "FIPS55": "23620", "POP": 45857.000000, "STATE_FIPS": "04", "STATE": "AZ", "COUNTY": "Coconino County" }, "geometry": { "type": "Point", "coordinates": [ -111.653305053710938, 35.198024749755859 ] } },
{ "type": "Feature", "properties": { "AREA": 0.000000, "PERIMETER": 0.000000, "CITIESX020": 15752.000000, "FEATURE": "Population less than 10,000  County Seat", "NAME": "Florence", "FIPS": "04021", "FIPS55": "23760", "POP": 7510.000000, "STATE_FIPS": "04", "STATE": "AZ", "COUNTY": "Pinal County" }, "geometry": { "type": "Point", "coordinates": [ -111.389152526855469, 33.031692504882812 ] } },
{ "type": "Feature", "properties": { "AREA": 0.000000, "PERIMETER": 0.000000, "CITIESX020": 15764.000000, "FEATURE": "Population 10,000 to 49,999", "NAME": "Gilbert", "FIPS": "04013", "FIPS55": "27400", "POP": 29188.000000, "STATE_FIPS": "04", "STATE": "AZ", "COUNTY": "Maricopa County" }, "geometry": { "type": "Point", "coordinates": [ -111.789993286132812, 33.353023529052734 ] } },
{ "type": "Feature", "properties": { "AREA": 0.000000, "PERIMETER": 0.000000, "CITIESX020": 15768.000000, "FEATURE": "Population 100,000 to 249,999", "NAME": "Glendale", "FIPS": "04013", "FIPS55": "27820", "POP": 148134.000000, "STATE_FIPS": "04", "STATE": "AZ", "COUNTY": "Maricopa County" }, "geometry": { "type": "Point", "coordinates": [ -112.187179565429688, 33.538646697998047 ] } },
{ "type": "Feature", "properties": { "AREA": 0.000000, "PERIMETER": 0.000000, "CITIESX020": 15769.000000, "FEATURE": "Population less than 10,000  County Seat", "NAME": "Globe", "FIPS": "04007", "FIPS55": "28030", "POP": 6062.000000, "STATE_FIPS": "04", "STATE": "AZ", "COUNTY": "Gila County" }, "geometry": { "type": "Point", "coordinates": [ -110.788139343261719, 33.394596099853516 ] } },
{ "type": "Feature", "properties": { "AREA": 0.000000, "PERIMETER": 0.000000, "CITIESX020": 15773.000000, "FEATURE": "Population 10,000 to 49,999", "NAME": "Green Valley", "FIPS": "04019", "FIPS55": "29710", "POP": 13231.000000, "STATE_FIPS": "04", "STATE": "AZ", "COUNTY": "Pima County" }, "geometry": { "type": "Point", "coordinates": [ -110.995796203613281, 31.854331970214844 ] } },
{ "type": "Feature", "properties": { "AREA": 0.000000, "PERIMETER": 0.000000, "CITIESX020": 15804.000000, "FEATURE": "Population 10,000 to 49,999  County Seat", "NAME": "Kingman", "FIPS": "04015", "FIPS55": "37620", "POP": 12722.000000, "STATE_FIPS": "04", "STATE": "AZ", "COUNTY": "Mohave County" }, "geometry": { "type": "Point", "coordinates": [ -114.054290771484375, 35.189258575439453 ] } },
{ "type": "Feature", "properties": { "AREA": 0.000000, "PERIMETER": 0.000000, "CITIESX020": 15810.000000, "FEATURE": "Population 10,000 to 49,999", "NAME": "Lake Havasu City", "FIPS": "04015", "FIPS55": "39370", "POP": 24363.000000, "STATE_FIPS": "04", "STATE": "AZ", "COUNTY": "Mohave County" }, "geometry": { "type": "Point", "coordinates": [ -114.324432373046875, 34.483795166015625 ] } },
{ "type": "Feature", "properties": { "AREA": 0.000000, "PERIMETER": 0.000000, "CITIESX020": 15831.000000, "FEATURE": "Population 250,000 to 499,999", "NAME": "Mesa", "FIPS": "04013", "FIPS55": "46000", "POP": 288091.000000, "STATE_FIPS": "04", "STATE": "AZ", "COUNTY": "Maricopa County" }, "geometry": { "type": "Point", "coordinates": [ -111.823905944824219, 33.422222137451172 ] } },
{ "type": "Feature", "properties": { "AREA": 0.000000, "PERIMETER": 0.000000, "CITIESX020": 15846.000000, "FEATURE": "Population 10,000 to 49,999  County Seat", "NAME": "Nogales", "FIPS": "04023", "FIPS55": "49640", "POP": 19489.000000, "STATE_FIPS": "04", "STATE": "AZ", "COUNTY": "Santa Cruz County" }, "geometry": { "type": "Point", "coordinates": [ -110.935722351074219, 31.340461730957031 ] } },
{ "type": "Feature", "properties": { "AREA": 0.000000, "PERIMETER": 0.000000, "CITIESX020": 15854.000000, "FEATURE": "Population less than 10,000", "NAME": "Page", "FIPS": "04005", "FIPS55": "51810", "POP": 6598.000000, "STATE_FIPS": "04", "STATE": "AZ", "COUNTY": "Coconino County" }, "geometry": { "type": "Point", "coordinates": [ -111.474960327148438, 36.908493041992188 ] } },
{ "type": "Feature", "properties": { "AREA": 0.000000, "PERIMETER": 0.000000, "CITIESX020": 15857.000000, "FEATURE": "Population 10,000 to 49,999", "NAME": "Paradise Valley", "FIPS": "04013", "FIPS55": "52930", "POP": 11671.000000, "STATE_FIPS": "04", "STATE": "AZ", "COUNTY": "Maricopa County" }, "geometry": { "type": "Point", "coordinates": [ -111.944282531738281, 33.531051635742188 ] } },
{ "type": "Feature", "properties": { "AREA": 0.000000, "PERIMETER": 0.000000, "CITIESX020": 15863.000000, "FEATURE": "Population less than 10,000", "NAME": "Payson", "FIPS": "04007", "FIPS55": "53700", "POP": 8377.000000, "STATE_FIPS": "04", "STATE": "AZ", "COUNTY": "Gila County" }, "geometry": { "type": "Point", "coordinates": [ -111.325851440429688, 34.231037139892578 ] } },
{ "type": "Feature", "properties": { "AREA": 0.000000, "PERIMETER": 0.000000, "CITIESX020": 15867.000000, "FEATURE": "Population 50,000 to 99,999", "NAME": "Peoria", "FIPS": "04013", "FIPS55": "54050", "POP": 50618.000000, "STATE_FIPS": "04", "STATE": "AZ", "COUNTY": "Maricopa County" }, "geometry": { "type": "Point", "coordinates": [ -112.23907470703125, 33.580841064453125 ] } },
{ "type": "Feature", "properties": { "AREA": 0.000000, "PERIMETER": 0.000000, "CITIESX020": 15870.000000, "FEATURE": "Population 500,000 to 999,999  State Capital  County Seat", "NAME": "Phoenix", "FIPS": "04013", "FIPS55": "55000", "POP": 983403.000000, "STATE_FIPS": "04", "STATE": "AZ", "COUNTY": "Maricopa County" }, "geometry": { "type": "Point", "coordinates": [ -112.075271606445312, 33.448253631591797 ] } },
{ "type": "Feature", "properties": { "AREA": 0.000000, "PERIMETER": 0.000000, "CITIESX020": 15883.000000, "FEATURE": "Population 10,000 to 49,999  County Seat", "NAME": "Prescott", "FIPS": "04025", "FIPS55": "57380", "POP": 26455.000000, "STATE_FIPS": "04", "STATE": "AZ", "COUNTY": "Yavapai County" }, "geometry": { "type": "Point", "coordinates": [ -112.470230102539062, 34.540081024169922 ] } },
{ "type": "Feature", "properties": { "AREA": 0.000000, "PERIMETER": 0.000000, "CITIESX020": 15896.000000, "FEATURE": "Population less than 10,000  County Seat", "NAME": "Safford", "FIPS": "04009", "FIPS55": "62000", "POP": 7359.000000, "STATE_FIPS": "04", "STATE": "AZ", "COUNTY": "Graham County" }, "geometry": { "type": "Point", "coordinates": [ -109.7091064453125, 32.834102630615234 ] } },
{ "type": "Feature", "properties": { "AREA": 0.000000, "PERIMETER": 0.000000, "CITIESX020": 15913.000000, "FEATURE": "Population 100,000 to 249,999", "NAME": "Scottsdale", "FIPS": "04013", "FIPS55": "65000", "POP": 130069.000000, "STATE_FIPS": "04", "STATE": "AZ", "COUNTY": "Maricopa County" }, "geometry": { "type": "Point", "coordinates": [ -111.900253295898438, 33.509185791015625 ] } },
{ "type": "Feature", "properties": { "AREA": 0.000000, "PERIMETER": 0.000000, "CITIESX020": 15914.000000, "FEATURE": "Population less than 10,000", "NAME": "Sedona", "FIPS": "04005", "FIPS55": "65350", "POP": 7720.000000, "STATE_FIPS": "04", "STATE": "AZ", "COUNTY": "Coconino County" }, "geometry": { "type": "Point", "coordinates": [ -111.762336730957031, 34.869598388671875 ] } },
{ "type": "Feature", "properties": { "AREA": 0.000000, "PERIMETER": 0.000000, "CITIESX020": 15922.000000, "FEATURE": "Population 10,000 to 49,999", "NAME": "Sierra Vista", "FIPS": "04003", "FIPS55": "66820", "POP": 32983.000000, "STATE_FIPS": "04", "STATE": "AZ", "COUNTY": "Cochise County" }, "geometry": { "type": "Point", "coordinates": [ -110.304832458496094, 31.554492950439453 ] } },
{ "type": "Feature", "properties": { "AREA": 0.000000, "PERIMETER": 0.000000, "CITIESX020": 15934.000000, "FEATURE": "Population 10,000 to 49,999", "NAME": "Sun City", "FIPS": "04013", "FIPS55": "70320", "POP": 38126.000000, "STATE_FIPS": "04", "STATE": "AZ", "COUNTY": "Maricopa County" }, "geometry": { "type": "Point", "coordinates": [ -112.273300170898438, 33.59759521484375 ] } },
{ "type": "Feature", "properties": { "AREA": 0.000000, "PERIMETER": 0.000000, "CITIESX020": 15943.000000, "FEATURE": "Population 100,000 to 249,999", "NAME": "Tempe", "FIPS": "04013", "FIPS55": "73000", "POP": 141865.000000, "STATE_FIPS": "04", "STATE": "AZ", "COUNTY": "Maricopa County" }, "geometry": { "type": "Point", "coordinates": [ -111.91082763671875, 33.415042877197266 ] } },
{ "type": "Feature", "properties": { "AREA": 0.000000, "PERIMETER": 0.000000, "CITIESX020": 15956.000000, "FEATURE": "Population less than 10,000", "NAME": "Tuba City", "FIPS": "04005", "FIPS55": "76010", "POP": 7323.000000, "STATE_FIPS": "04", "STATE": "AZ", "COUNTY": "Coconino County" }, "geometry": { "type": "Point", "coordinates": [ -111.241058349609375, 36.134918212890625 ] } },
{ "type": "Feature", "properties": { "AREA": 0.000000, "PERIMETER": 0.000000, "CITIESX020": 15958.000000, "FEATURE": "Population 250,000 to 499,999  County Seat", "NAME": "Tucson", "FIPS": "04019", "FIPS55": "77000", "POP": 405390.000000, "STATE_FIPS": "04", "STATE": "AZ", "COUNTY": "Pima County" }, "geometry": { "type": "Point", "coordinates": [ -110.92779541015625, 32.222091674804688 ] } },
{ "type": "Feature", "properties": { "AREA": 0.000000, "PERIMETER": 0.000000, "CITIESX020": 15974.000000, "FEATURE": "Population less than 10,000", "NAME": "Winslow", "FIPS": "04017", "FIPS55": "83930", "POP": 8190.000000, "STATE_FIPS": "04", "STATE": "AZ", "COUNTY": "Navajo County" }, "geometry": { "type": "Point", "coordinates": [ -110.699058532714844, 35.024269104003906 ] } },
{ "type": "Feature", "properties": { "AREA": 0.000000, "PERIMETER": 0.000000, "CITIESX020": 15980.000000, "FEATURE": "Population 50,000 to 99,999  County Seat", "NAME": "Yuma", "FIPS": "04027", "FIPS55": "85540", "POP": 54923.000000, "STATE_FIPS": "04", "STATE": "AZ", "COUNTY": "Yuma County" }, "geometry": { "type": "Point", "coordinates": [ -114.626266479492188, 32.725311279296875 ] } }
]
}
